[
  {
    "city": "Aleksandrów Kujawski",
    "lat": "52.8767",
    "lng": "18.6936",
    "country": "Poland",
    "iso2": "PL",
    "admin_name": "Kujawsko-Pomorskie",
    "capital": "minor",
    "population": "11719",
    "population_proper": "11719",
    "value": "aleksandrow_kujawski"
  },
  {
    "city": "Aleksandrowice",
    "lat": "49.8144",
    "lng": "19.2333",
    "country": "Poland",
    "iso2": "PL",
    "admin_name": "Śląskie",
    "capital": "",
    "population": "1821",
    "population_proper": "1821",
    "value": "aleksandrowice"
  },
  {
    "city": "Bartoszyce",
    "lat": "54.2500",
    "lng": "20.8000",
    "country": "Poland",
    "iso2": "PL",
    "admin_name": "Warmińsko-Mazurskie",
    "capital": "minor",
    "population": "22281",
    "population_proper": "22281",
    "value": "bartoszyce"
  },
  {
    "city": "Będzin",
    "lat": "50.3333",
    "lng": "19.1167",
    "country": "Poland",
    "iso2": "PL",
    "admin_name": "Śląskie",
    "capital": "minor",
    "population": "55695",
    "population_proper": "55695",
    "value": "bedzin"
  },
  {
    "city": "Bełchatów",
    "lat": "51.3667",
    "lng": "19.3667",
    "country": "Poland",
    "iso2": "PL",
    "admin_name": "Łódzkie",
    "capital": "minor",
    "population": "54338",
    "population_proper": "54338",
    "value": "belchatow"
  },
  {
    "city": "Biały Kamień",
    "lat": "50.7814",
    "lng": "16.2539",
    "country": "Poland",
    "iso2": "PL",
    "admin_name": "Dolnośląskie",
    "capital": "",
    "population": "14278",
    "population_proper": "14278",
    "value": "bialy_kamien"
  },
  {
    "city": "Białystok",
    "lat": "53.1353",
    "lng": "23.1456",
    "country": "Poland",
    "iso2": "PL",
    "admin_name": "Podlaskie",
    "capital": "admin",
    "population": "294242",
    "population_proper": "294242",
    "value": "bialystok"
  },
  {
    "city": "Bielsko-Biała",
    "lat": "49.8225",
    "lng": "19.0444",
    "country": "Poland",
    "iso2": "PL",
    "admin_name": "Śląskie",
    "capital": "minor",
    "population": "169089",
    "population_proper": "169089",
    "value": "bielsko-biala"
  },
  {
    "city": "Biłgoraj",
    "lat": "50.5500",
    "lng": "22.7333",
    "country": "Poland",
    "iso2": "PL",
    "admin_name": "Lubelskie",
    "capital": "minor",
    "population": "25459",
    "population_proper": "25459",
    "value": "bilgoraj"
  },
  {
    "city": "Bogucice",
    "lat": "50.2668",
    "lng": "19.0397",
    "country": "Poland",
    "iso2": "PL",
    "admin_name": "Śląskie",
    "capital": "",
    "population": "16538",
    "population_proper": "16538",
    "value": "bogucice"
  },
  {
    "city": "Bolesławiec",
    "lat": "51.2667",
    "lng": "15.5667",
    "country": "Poland",
    "iso2": "PL",
    "admin_name": "Dolnośląskie",
    "capital": "minor",
    "population": "37559",
    "population_proper": "37559",
    "value": "boleslawiec"
  },
  {
    "city": "Braniewo",
    "lat": "54.3833",
    "lng": "19.8333",
    "country": "Poland",
    "iso2": "PL",
    "admin_name": "Warmińsko-Mazurskie",
    "capital": "minor",
    "population": "16480",
    "population_proper": "16480",
    "value": "braniewo"
  },
  {
    "city": "Brodnica",
    "lat": "53.2597",
    "lng": "19.3956",
    "country": "Poland",
    "iso2": "PL",
    "admin_name": "Kujawsko-Pomorskie",
    "capital": "minor",
    "population": "28536",
    "population_proper": "28536",
    "value": "brodnica"
  },
  {
    "city": "Brzeg",
    "lat": "50.8667",
    "lng": "17.4833",
    "country": "Poland",
    "iso2": "PL",
    "admin_name": "Opolskie",
    "capital": "minor",
    "population": "34492",
    "population_proper": "34492",
    "value": "brzeg"
  },
  {
    "city": "Bydgoszcz",
    "lat": "53.1219",
    "lng": "18.0003",
    "country": "Poland",
    "iso2": "PL",
    "admin_name": "Kujawsko-Pomorskie",
    "capital": "admin",
    "population": "337666",
    "population_proper": "337666",
    "value": "bydgoszcz"
  },
  {
    "city": "Bytom",
    "lat": "50.3483",
    "lng": "18.9156",
    "country": "Poland",
    "iso2": "PL",
    "admin_name": "Śląskie",
    "capital": "minor",
    "population": "153274",
    "population_proper": "153274",
    "value": "bytom"
  },
  {
    "city": "Chełm",
    "lat": "51.1322",
    "lng": "23.4778",
    "country": "Poland",
    "iso2": "PL",
    "admin_name": "Lubelskie",
    "capital": "minor",
    "population": "59546",
    "population_proper": "59546",
    "value": "chelm"
  },
  {
    "city": "Chełmno",
    "lat": "53.3492",
    "lng": "18.4231",
    "country": "Poland",
    "iso2": "PL",
    "admin_name": "Kujawsko-Pomorskie",
    "capital": "minor",
    "population": "18837",
    "population_proper": "18837",
    "value": "chelmno"
  },
  {
    "city": "Chełmża",
    "lat": "53.1847",
    "lng": "18.6042",
    "country": "Poland",
    "iso2": "PL",
    "admin_name": "Kujawsko-Pomorskie",
    "capital": "",
    "population": "14045",
    "population_proper": "14045",
    "value": "chelmza"
  },
  {
    "city": "Chodzież",
    "lat": "52.9833",
    "lng": "16.9000",
    "country": "Poland",
    "iso2": "PL",
    "admin_name": "Wielkopolskie",
    "capital": "minor",
    "population": "18044",
    "population_proper": "18044",
    "value": "chodziez"
  },
  {
    "city": "Chojnice",
    "lat": "53.7000",
    "lng": "17.5500",
    "country": "Poland",
    "iso2": "PL",
    "admin_name": "Pomorskie",
    "capital": "minor",
    "population": "39275",
    "population_proper": "39275",
    "value": "chojnice"
  },
  {
    "city": "Chojnów",
    "lat": "51.2667",
    "lng": "15.9333",
    "country": "Poland",
    "iso2": "PL",
    "admin_name": "Dolnośląskie",
    "capital": "",
    "population": "12769",
    "population_proper": "12769",
    "value": "chojnow"
  },
  {
    "city": "Chorzów",
    "lat": "50.3000",
    "lng": "18.9500",
    "country": "Poland",
    "iso2": "PL",
    "admin_name": "Śląskie",
    "capital": "minor",
    "population": "104193",
    "population_proper": "104193",
    "value": "chorzow"
  },
  {
    "city": "Chropaczów",
    "lat": "50.3131",
    "lng": "18.9150",
    "country": "Poland",
    "iso2": "PL",
    "admin_name": "Śląskie",
    "capital": "",
    "population": "12589",
    "population_proper": "12589",
    "value": "chropaczow"
  },
  {
    "city": "Chruszczów",
    "lat": "50.3333",
    "lng": "18.8833",
    "country": "Poland",
    "iso2": "PL",
    "admin_name": "Śląskie",
    "capital": "",
    "population": "7464",
    "population_proper": "7464",
    "value": "chruszczow"
  },
  {
    "city": "Cieszyn",
    "lat": "49.7484",
    "lng": "18.6332",
    "country": "Poland",
    "iso2": "PL",
    "admin_name": "Śląskie",
    "capital": "minor",
    "population": "33958",
    "population_proper": "33958",
    "value": "cieszyn"
  },
  {
    "city": "Czarnków",
    "lat": "52.9000",
    "lng": "16.5667",
    "country": "Poland",
    "iso2": "PL",
    "admin_name": "Wielkopolskie",
    "capital": "minor",
    "population": "10370",
    "population_proper": "10370",
    "value": "czarnkow"
  },
  {
    "city": "Czechowice-Dziedzice",
    "lat": "49.9131",
    "lng": "19.0064",
    "country": "Poland",
    "iso2": "PL",
    "admin_name": "Śląskie",
    "capital": "",
    "population": "35261",
    "population_proper": "35261",
    "value": "czechowice-dziedzice"
  },
  {
    "city": "Czeladź",
    "lat": "50.3333",
    "lng": "19.0833",
    "country": "Poland",
    "iso2": "PL",
    "admin_name": "Śląskie",
    "capital": "",
    "population": "30681",
    "population_proper": "30681",
    "value": "czeladz"
  },
  {
    "city": "Częstochowa",
    "lat": "50.8000",
    "lng": "19.1167",
    "country": "Poland",
    "iso2": "PL",
    "admin_name": "Śląskie",
    "capital": "minor",
    "population": "213107",
    "population_proper": "213107",
    "value": "czestochowa"
  },
  {
    "city": "Człuchów",
    "lat": "53.6500",
    "lng": "17.3667",
    "country": "Poland",
    "iso2": "PL",
    "admin_name": "Pomorskie",
    "capital": "minor",
    "population": "13343",
    "population_proper": "13343",
    "value": "czluchow"
  },
  {
    "city": "Dąb",
    "lat": "50.2739",
    "lng": "18.9992",
    "country": "Poland",
    "iso2": "PL",
    "admin_name": "Śląskie",
    "capital": "",
    "population": "7694",
    "population_proper": "7694",
    "value": "dab"
  },
  {
    "city": "Dąbrowa Górnicza",
    "lat": "50.3214",
    "lng": "19.1872",
    "country": "Poland",
    "iso2": "PL",
    "admin_name": "Śląskie",
    "capital": "minor",
    "population": "116930",
    "population_proper": "116930",
    "value": "dabrowa_gornicza"
  },
  {
    "city": "Dąbrówka Mała",
    "lat": "50.2769",
    "lng": "19.0808",
    "country": "Poland",
    "iso2": "PL",
    "admin_name": "Śląskie",
    "capital": "",
    "population": "5411",
    "population_proper": "5411",
    "value": "dabrowka_mala"
  },
  {
    "city": "Dębica",
    "lat": "50.0500",
    "lng": "21.4167",
    "country": "Poland",
    "iso2": "PL",
    "admin_name": "Podkarpackie",
    "capital": "minor",
    "population": "44047",
    "population_proper": "44047",
    "value": "debica"
  },
  {
    "city": "Długa Szlachecka",
    "lat": "52.2500",
    "lng": "21.3167",
    "country": "Poland",
    "iso2": "PL",
    "admin_name": "Mazowieckie",
    "capital": "",
    "population": "1060",
    "population_proper": "1060",
    "value": "dluga_szlachecka"
  },
  {
    "city": "Działdowo",
    "lat": "53.2333",
    "lng": "20.1833",
    "country": "Poland",
    "iso2": "PL",
    "admin_name": "Warmińsko-Mazurskie",
    "capital": "minor",
    "population": "20670",
    "population_proper": "20670",
    "value": "dzialdowo"
  },
  {
    "city": "Dzierżoniów",
    "lat": "50.7281",
    "lng": "16.6511",
    "country": "Poland",
    "iso2": "PL",
    "admin_name": "Dolnośląskie",
    "capital": "minor",
    "population": "31866",
    "population_proper": "31866",
    "value": "dzierzoniow"
  },
  {
    "city": "Elbląg",
    "lat": "54.1667",
    "lng": "19.4000",
    "country": "Poland",
    "iso2": "PL",
    "admin_name": "Warmińsko-Mazurskie",
    "capital": "minor",
    "population": "115220",
    "population_proper": "115220",
    "value": "elblag"
  },
  {
    "city": "Ełk",
    "lat": "53.8214",
    "lng": "22.3622",
    "country": "Poland",
    "iso2": "PL",
    "admin_name": "Warmińsko-Mazurskie",
    "capital": "minor",
    "population": "60390",
    "population_proper": "60390",
    "value": "elk"
  },
  {
    "city": "Gdańsk",
    "lat": "54.3475",
    "lng": "18.6453",
    "country": "Poland",
    "iso2": "PL",
    "admin_name": "Pomorskie",
    "capital": "admin",
    "population": "486022",
    "population_proper": "486022",
    "value": "gdansk"
  },
  {
    "city": "Gdynia",
    "lat": "54.5175",
    "lng": "18.5400",
    "country": "Poland",
    "iso2": "PL",
    "admin_name": "Pomorskie",
    "capital": "minor",
    "population": "245222",
    "population_proper": "245222",
    "value": "gdynia"
  },
  {
    "city": "Giszowiec",
    "lat": "50.2236",
    "lng": "19.0694",
    "country": "Poland",
    "iso2": "PL",
    "admin_name": "Śląskie",
    "capital": "",
    "population": "18475",
    "population_proper": "18475",
    "value": "giszowiec"
  },
  {
    "city": "Giżycko",
    "lat": "54.0400",
    "lng": "21.7589",
    "country": "Poland",
    "iso2": "PL",
    "admin_name": "Warmińsko-Mazurskie",
    "capital": "minor",
    "population": "28233",
    "population_proper": "28233",
    "value": "gizycko"
  },
  {
    "city": "Gliwice",
    "lat": "50.2833",
    "lng": "18.6667",
    "country": "Poland",
    "iso2": "PL",
    "admin_name": "Śląskie",
    "capital": "minor",
    "population": "174016",
    "population_proper": "174016",
    "value": "gliwice"
  },
  {
    "city": "Głogów",
    "lat": "51.6589",
    "lng": "16.0803",
    "country": "Poland",
    "iso2": "PL",
    "admin_name": "Dolnośląskie",
    "capital": "minor",
    "population": "64261",
    "population_proper": "64261",
    "value": "glogow"
  },
  {
    "city": "Gniezno",
    "lat": "52.5358",
    "lng": "17.5958",
    "country": "Poland",
    "iso2": "PL",
    "admin_name": "Wielkopolskie",
    "capital": "minor",
    "population": "65452",
    "population_proper": "65452",
    "value": "gniezno"
  },
  {
    "city": "Golub-Dobrzyń",
    "lat": "53.1000",
    "lng": "19.0500",
    "country": "Poland",
    "iso2": "PL",
    "admin_name": "Kujawsko-Pomorskie",
    "capital": "minor",
    "population": "11722",
    "population_proper": "11722",
    "value": "golub-dobrzyn"
  },
  {
    "city": "Gorlice",
    "lat": "49.6547",
    "lng": "21.1597",
    "country": "Poland",
    "iso2": "PL",
    "admin_name": "Małopolskie",
    "capital": "minor",
    "population": "26405",
    "population_proper": "26405",
    "value": "gorlice"
  },
  {
    "city": "Górowo Iławeckie",
    "lat": "54.2861",
    "lng": "20.4917",
    "country": "Poland",
    "iso2": "PL",
    "admin_name": "Warmińsko-Mazurskie",
    "capital": "",
    "population": "3797",
    "population_proper": "3797",
    "value": "gorowo_ilaweckie"
  },
  {
    "city": "Gorzów Wielkopolski",
    "lat": "52.7333",
    "lng": "15.2500",
    "country": "Poland",
    "iso2": "PL",
    "admin_name": "Lubuskie",
    "capital": "admin",
    "population": "119964",
    "population_proper": "119964",
    "value": "gorzow_wielkopolski"
  },
  {
    "city": "Grajewo",
    "lat": "53.6500",
    "lng": "22.4500",
    "country": "Poland",
    "iso2": "PL",
    "admin_name": "Podlaskie",
    "capital": "minor",
    "population": "21395",
    "population_proper": "21395",
    "value": "grajewo"
  },
  {
    "city": "Halemba",
    "lat": "50.2378",
    "lng": "18.8633",
    "country": "Poland",
    "iso2": "PL",
    "admin_name": "Śląskie",
    "capital": "",
    "population": "26080",
    "population_proper": "26080",
    "value": "halemba"
  },
  {
    "city": "Iława",
    "lat": "53.5964",
    "lng": "19.5656",
    "country": "Poland",
    "iso2": "PL",
    "admin_name": "Warmińsko-Mazurskie",
    "capital": "minor",
    "population": "32664",
    "population_proper": "32664",
    "value": "ilawa"
  },
  {
    "city": "Inowrocław",
    "lat": "52.7931",
    "lng": "18.2611",
    "country": "Poland",
    "iso2": "PL",
    "admin_name": "Kujawsko-Pomorskie",
    "capital": "minor",
    "population": "69576",
    "population_proper": "69576",
    "value": "inowroclaw"
  },
  {
    "city": "Jasien",
    "lat": "54.3667",
    "lng": "18.6333",
    "country": "Poland",
    "iso2": "PL",
    "admin_name": "Pomorskie",
    "capital": "",
    "population": "18014",
    "population_proper": "18014",
    "value": "jasien"
  },
  {
    "city": "Jawor",
    "lat": "51.0500",
    "lng": "16.2000",
    "country": "Poland",
    "iso2": "PL",
    "admin_name": "Dolnośląskie",
    "capital": "minor",
    "population": "21494",
    "population_proper": "21494",
    "value": "jawor"
  },
  {
    "city": "Jodłówka",
    "lat": "50.0628",
    "lng": "21.1122",
    "country": "Poland",
    "iso2": "PL",
    "admin_name": "Małopolskie",
    "capital": "",
    "population": "1282",
    "population_proper": "1282",
    "value": "jodlowka"
  },
  {
    "city": "Kajkowo",
    "lat": "53.6667",
    "lng": "19.9667",
    "country": "Poland",
    "iso2": "PL",
    "admin_name": "Warmińsko-Mazurskie",
    "capital": "",
    "population": "1017",
    "population_proper": "1017",
    "value": "kajkowo"
  },
  {
    "city": "Kalisz",
    "lat": "51.7575",
    "lng": "18.0800",
    "country": "Poland",
    "iso2": "PL",
    "admin_name": "Wielkopolskie",
    "capital": "minor",
    "population": "95905",
    "population_proper": "95905",
    "value": "kalisz"
  },
  {
    "city": "Katowice",
    "lat": "50.2625",
    "lng": "19.0217",
    "country": "Poland",
    "iso2": "PL",
    "admin_name": "Śląskie",
    "capital": "admin",
    "population": "285711",
    "population_proper": "285711",
    "value": "katowice"
  },
  {
    "city": "Kętrzyn",
    "lat": "54.0833",
    "lng": "21.3833",
    "country": "Poland",
    "iso2": "PL",
    "admin_name": "Warmińsko-Mazurskie",
    "capital": "minor",
    "population": "26174",
    "population_proper": "26174",
    "value": "ketrzyn"
  },
  {
    "city": "Kielce",
    "lat": "50.8742",
    "lng": "20.6333",
    "country": "Poland",
    "iso2": "PL",
    "admin_name": "Świętokrzyskie",
    "capital": "admin",
    "population": "186894",
    "population_proper": "186894",
    "value": "kielce"
  },
  {
    "city": "Knurów",
    "lat": "50.2167",
    "lng": "18.6833",
    "country": "Poland",
    "iso2": "PL",
    "admin_name": "Śląskie",
    "capital": "",
    "population": "36498",
    "population_proper": "36498",
    "value": "knurow"
  },
  {
    "city": "Kobyłka",
    "lat": "52.3333",
    "lng": "21.2000",
    "country": "Poland",
    "iso2": "PL",
    "admin_name": "Mazowieckie",
    "capital": "",
    "population": "27185",
    "population_proper": "27185",
    "value": "kobylka"
  },
  {
    "city": "Koło",
    "lat": "52.2000",
    "lng": "18.6333",
    "country": "Poland",
    "iso2": "PL",
    "admin_name": "Wielkopolskie",
    "capital": "minor",
    "population": "20380",
    "population_proper": "20380",
    "value": "kolo"
  },
  {
    "city": "Kołobrzeg",
    "lat": "54.1761",
    "lng": "15.5761",
    "country": "Poland",
    "iso2": "PL",
    "admin_name": "Zachodniopomorskie",
    "capital": "minor",
    "population": "44340",
    "population_proper": "44340",
    "value": "kolobrzeg"
  },
  {
    "city": "Kościan",
    "lat": "52.0833",
    "lng": "16.6500",
    "country": "Poland",
    "iso2": "PL",
    "admin_name": "Wielkopolskie",
    "capital": "minor",
    "population": "24022",
    "population_proper": "24022",
    "value": "koscian"
  },
  {
    "city": "Kościerzyna",
    "lat": "54.1167",
    "lng": "17.9833",
    "country": "Poland",
    "iso2": "PL",
    "admin_name": "Pomorskie",
    "capital": "minor",
    "population": "23723",
    "population_proper": "23723",
    "value": "koscierzyna"
  },
  {
    "city": "Koszalin",
    "lat": "54.2000",
    "lng": "16.1833",
    "country": "Poland",
    "iso2": "PL",
    "admin_name": "Zachodniopomorskie",
    "capital": "minor",
    "population": "105883",
    "population_proper": "105883",
    "value": "koszalin"
  },
  {
    "city": "Koszutka",
    "lat": "50.2711",
    "lng": "19.0211",
    "country": "Poland",
    "iso2": "PL",
    "admin_name": "Śląskie",
    "capital": "",
    "population": "12431",
    "population_proper": "12431",
    "value": "koszutka"
  },
  {
    "city": "Koszyce",
    "lat": "49.9689",
    "lng": "20.9475",
    "country": "Poland",
    "iso2": "PL",
    "admin_name": "Małopolskie",
    "capital": "",
    "population": "2207",
    "population_proper": "2207",
    "value": "koszyce"
  },
  {
    "city": "Kraków",
    "lat": "50.0614",
    "lng": "19.9372",
    "country": "Poland",
    "iso2": "PL",
    "admin_name": "Małopolskie",
    "capital": "admin",
    "population": "804237",
    "population_proper": "804237",
    "value": "krakow"
  },
  {
    "city": "Kraśnik",
    "lat": "50.9167",
    "lng": "22.2167",
    "country": "Poland",
    "iso2": "PL",
    "admin_name": "Lubelskie",
    "capital": "minor",
    "population": "32593",
    "population_proper": "32593",
    "value": "krasnik"
  },
  {
    "city": "Ksawerów",
    "lat": "51.6822",
    "lng": "19.4028",
    "country": "Poland",
    "iso2": "PL",
    "admin_name": "Łódzkie",
    "capital": "",
    "population": "6897",
    "population_proper": "6897",
    "value": "ksawerow"
  },
  {
    "city": "Kwidzyn",
    "lat": "53.7358",
    "lng": "18.9308",
    "country": "Poland",
    "iso2": "PL",
    "admin_name": "Pomorskie",
    "capital": "minor",
    "population": "37768",
    "population_proper": "37768",
    "value": "kwidzyn"
  },
  {
    "city": "Łańcut",
    "lat": "50.0667",
    "lng": "22.2333",
    "country": "Poland",
    "iso2": "PL",
    "admin_name": "Podkarpackie",
    "capital": "minor",
    "population": "17768",
    "population_proper": "17768",
    "value": "lancut"
  },
  {
    "city": "Latoszyn",
    "lat": "50.0333",
    "lng": "21.3667",
    "country": "Poland",
    "iso2": "PL",
    "admin_name": "Podkarpackie",
    "capital": "",
    "population": "1560",
    "population_proper": "1560",
    "value": "latoszyn"
  },
  {
    "city": "Lębork",
    "lat": "54.5500",
    "lng": "17.7500",
    "country": "Poland",
    "iso2": "PL",
    "admin_name": "Pomorskie",
    "capital": "minor",
    "population": "34500",
    "population_proper": "34500",
    "value": "lebork"
  },
  {
    "city": "Łęczyca",
    "lat": "52.0500",
    "lng": "19.2000",
    "country": "Poland",
    "iso2": "PL",
    "admin_name": "Łódzkie",
    "capital": "minor",
    "population": "13587",
    "population_proper": "13587",
    "value": "leczyca"
  },
  {
    "city": "Legionowo",
    "lat": "52.4000",
    "lng": "20.8833",
    "country": "Poland",
    "iso2": "PL",
    "admin_name": "Mazowieckie",
    "capital": "minor",
    "population": "53216",
    "population_proper": "53216",
    "value": "legionowo"
  },
  {
    "city": "Legnica",
    "lat": "51.2083",
    "lng": "16.1603",
    "country": "Poland",
    "iso2": "PL",
    "admin_name": "Dolnośląskie",
    "capital": "minor",
    "population": "94878",
    "population_proper": "94878",
    "value": "legnica"
  },
  {
    "city": "Leszno",
    "lat": "51.8458",
    "lng": "16.5806",
    "country": "Poland",
    "iso2": "PL",
    "admin_name": "Wielkopolskie",
    "capital": "minor",
    "population": "61791",
    "population_proper": "61791",
    "value": "leszno"
  },
  {
    "city": "Libertów",
    "lat": "49.9667",
    "lng": "19.8833",
    "country": "Poland",
    "iso2": "PL",
    "admin_name": "Małopolskie",
    "capital": "",
    "population": "3029",
    "population_proper": "3029",
    "value": "libertow"
  },
  {
    "city": "Lidzbark Warmiński",
    "lat": "54.1167",
    "lng": "20.5833",
    "country": "Poland",
    "iso2": "PL",
    "admin_name": "Warmińsko-Mazurskie",
    "capital": "minor",
    "population": "14878",
    "population_proper": "14878",
    "value": "lidzbark_warminski"
  },
  {
    "city": "Lipno",
    "lat": "52.8500",
    "lng": "19.1667",
    "country": "Poland",
    "iso2": "PL",
    "admin_name": "Kujawsko-Pomorskie",
    "capital": "minor",
    "population": "13752",
    "population_proper": "13752",
    "value": "lipno"
  },
  {
    "city": "Łódź",
    "lat": "51.7769",
    "lng": "19.4547",
    "country": "Poland",
    "iso2": "PL",
    "admin_name": "Łódzkie",
    "capital": "admin",
    "population": "670642",
    "population_proper": "670642",
    "value": "lodz"
  },
  {
    "city": "Łomianki",
    "lat": "52.3333",
    "lng": "20.8833",
    "country": "Poland",
    "iso2": "PL",
    "admin_name": "Mazowieckie",
    "capital": "",
    "population": "18124",
    "population_proper": "18124",
    "value": "lomianki"
  },
  {
    "city": "Łowicz",
    "lat": "52.1000",
    "lng": "19.9333",
    "country": "Poland",
    "iso2": "PL",
    "admin_name": "Łódzkie",
    "capital": "minor",
    "population": "26928",
    "population_proper": "26928",
    "value": "lowicz"
  },
  {
    "city": "Lubań",
    "lat": "51.1181",
    "lng": "15.2889",
    "country": "Poland",
    "iso2": "PL",
    "admin_name": "Dolnośląskie",
    "capital": "minor",
    "population": "20096",
    "population_proper": "20096",
    "value": "luban"
  },
  {
    "city": "Lubartów",
    "lat": "51.4667",
    "lng": "22.6000",
    "country": "Poland",
    "iso2": "PL",
    "admin_name": "Lubelskie",
    "capital": "minor",
    "population": "20494",
    "population_proper": "20494",
    "value": "lubartow"
  },
  {
    "city": "Lubin",
    "lat": "51.4000",
    "lng": "16.2000",
    "country": "Poland",
    "iso2": "PL",
    "admin_name": "Dolnośląskie",
    "capital": "minor",
    "population": "70016",
    "population_proper": "70016",
    "value": "lubin"
  },
  {
    "city": "Lublin",
    "lat": "51.2500",
    "lng": "22.5667",
    "country": "Poland",
    "iso2": "PL",
    "admin_name": "Lubelskie",
    "capital": "admin",
    "population": "334681",
    "population_proper": "334681",
    "value": "lublin"
  },
  {
    "city": "Luboń",
    "lat": "52.3333",
    "lng": "16.8833",
    "country": "Poland",
    "iso2": "PL",
    "admin_name": "Wielkopolskie",
    "capital": "",
    "population": "33024",
    "population_proper": "33024",
    "value": "lubon"
  },
  {
    "city": "Malbork",
    "lat": "54.0333",
    "lng": "19.0333",
    "country": "Poland",
    "iso2": "PL",
    "admin_name": "Pomorskie",
    "capital": "minor",
    "population": "37635",
    "population_proper": "37635",
    "value": "malbork"
  },
  {
    "city": "Marki",
    "lat": "52.3333",
    "lng": "21.1000",
    "country": "Poland",
    "iso2": "PL",
    "admin_name": "Mazowieckie",
    "capital": "",
    "population": "42252",
    "population_proper": "42252",
    "value": "marki"
  },
  {
    "city": "Mielec",
    "lat": "50.2833",
    "lng": "21.4333",
    "country": "Poland",
    "iso2": "PL",
    "admin_name": "Podkarpackie",
    "capital": "minor",
    "population": "58213",
    "population_proper": "58213",
    "value": "mielec"
  },
  {
    "city": "Milanówek",
    "lat": "52.1167",
    "lng": "20.6500",
    "country": "Poland",
    "iso2": "PL",
    "admin_name": "Mazowieckie",
    "capital": "",
    "population": "16490",
    "population_proper": "16490",
    "value": "milanowek"
  },
  {
    "city": "Mińsk Mazowiecki",
    "lat": "52.1833",
    "lng": "21.5667",
    "country": "Poland",
    "iso2": "PL",
    "admin_name": "Mazowieckie",
    "capital": "minor",
    "population": "40467",
    "population_proper": "40467",
    "value": "minsk_mazowiecki"
  },
  {
    "city": "Mrągowo",
    "lat": "53.8667",
    "lng": "21.3000",
    "country": "Poland",
    "iso2": "PL",
    "admin_name": "Warmińsko-Mazurskie",
    "capital": "minor",
    "population": "21325",
    "population_proper": "21325",
    "value": "mragowo"
  },
  {
    "city": "Mysłowice",
    "lat": "50.2333",
    "lng": "19.1333",
    "country": "Poland",
    "iso2": "PL",
    "admin_name": "Śląskie",
    "capital": "minor",
    "population": "72553",
    "population_proper": "72553",
    "value": "myslowice"
  },
  {
    "city": "Nowa Sól",
    "lat": "51.8000",
    "lng": "15.7167",
    "country": "Poland",
    "iso2": "PL",
    "admin_name": "Lubuskie",
    "capital": "minor",
    "population": "36843",
    "population_proper": "36843",
    "value": "nowa_sol"
  },
  {
    "city": "Nowy Sącz",
    "lat": "49.6239",
    "lng": "20.6972",
    "country": "Poland",
    "iso2": "PL",
    "admin_name": "Małopolskie",
    "capital": "minor",
    "population": "81281",
    "population_proper": "81281",
    "value": "nowy_sacz"
  },
  {
    "city": "Oława",
    "lat": "50.9333",
    "lng": "17.3000",
    "country": "Poland",
    "iso2": "PL",
    "admin_name": "Dolnośląskie",
    "capital": "minor",
    "population": "33268",
    "population_proper": "33268",
    "value": "olawa"
  },
  {
    "city": "Oleśnica",
    "lat": "51.2000",
    "lng": "17.3833",
    "country": "Poland",
    "iso2": "PL",
    "admin_name": "Dolnośląskie",
    "capital": "minor",
    "population": "35856",
    "population_proper": "35856",
    "value": "olesnica"
  },
  {
    "city": "Olsztyn",
    "lat": "53.7778",
    "lng": "20.4792",
    "country": "Poland",
    "iso2": "PL",
    "admin_name": "Warmińsko-Mazurskie",
    "capital": "admin",
    "population": "170225",
    "population_proper": "170225",
    "value": "olsztyn"
  },
  {
    "city": "Opole",
    "lat": "50.6667",
    "lng": "17.9333",
    "country": "Poland",
    "iso2": "PL",
    "admin_name": "Opolskie",
    "capital": "admin",
    "population": "127387",
    "population_proper": "127387",
    "value": "opole"
  },
  {
    "city": "Osowa",
    "lat": "54.4272",
    "lng": "18.4708",
    "country": "Poland",
    "iso2": "PL",
    "admin_name": "Pomorskie",
    "capital": "",
    "population": "15843",
    "population_proper": "15843",
    "value": "osowa"
  },
  {
    "city": "Ostrołęka",
    "lat": "53.0667",
    "lng": "21.5667",
    "country": "Poland",
    "iso2": "PL",
    "admin_name": "Mazowieckie",
    "capital": "minor",
    "population": "49805",
    "population_proper": "49805",
    "value": "ostroleka"
  },
  {
    "city": "Ostrów Wielkopolski",
    "lat": "51.6494",
    "lng": "17.8164",
    "country": "Poland",
    "iso2": "PL",
    "admin_name": "Wielkopolskie",
    "capital": "minor",
    "population": "70725",
    "population_proper": "70725",
    "value": "ostrow_wielkopolski"
  },
  {
    "city": "Ostrowiec Świętokrzyski",
    "lat": "50.9333",
    "lng": "21.4000",
    "country": "Poland",
    "iso2": "PL",
    "admin_name": "Świętokrzyskie",
    "capital": "minor",
    "population": "64796",
    "population_proper": "64796",
    "value": "ostrowiec_swietokrzyski"
  },
  {
    "city": "Oświęcim",
    "lat": "50.0381",
    "lng": "19.2214",
    "country": "Poland",
    "iso2": "PL",
    "admin_name": "Małopolskie",
    "capital": "minor",
    "population": "36956",
    "population_proper": "36956",
    "value": "oswiecim"
  },
  {
    "city": "Ozorków",
    "lat": "51.9667",
    "lng": "19.2833",
    "country": "Poland",
    "iso2": "PL",
    "admin_name": "Łódzkie",
    "capital": "",
    "population": "18721",
    "population_proper": "18721",
    "value": "ozorkow"
  },
  {
    "city": "Pabianice",
    "lat": "51.6500",
    "lng": "19.3833",
    "country": "Poland",
    "iso2": "PL",
    "admin_name": "Łódzkie",
    "capital": "minor",
    "population": "62954",
    "population_proper": "62954",
    "value": "pabianice"
  },
  {
    "city": "Piastów",
    "lat": "52.1833",
    "lng": "20.8500",
    "country": "Poland",
    "iso2": "PL",
    "admin_name": "Mazowieckie",
    "capital": "",
    "population": "23281",
    "population_proper": "23281",
    "value": "piastow"
  },
  {
    "city": "Piekary Śląskie",
    "lat": "50.3833",
    "lng": "18.9500",
    "country": "Poland",
    "iso2": "PL",
    "admin_name": "Śląskie",
    "capital": "minor",
    "population": "53017",
    "population_proper": "53017",
    "value": "piekary_slaskie"
  },
  {
    "city": "Płock",
    "lat": "52.5500",
    "lng": "19.7000",
    "country": "Poland",
    "iso2": "PL",
    "admin_name": "Mazowieckie",
    "capital": "minor",
    "population": "114594",
    "population_proper": "114594",
    "value": "plock"
  },
  {
    "city": "Płońsk",
    "lat": "52.6333",
    "lng": "20.3833",
    "country": "Poland",
    "iso2": "PL",
    "admin_name": "Mazowieckie",
    "capital": "minor",
    "population": "21800",
    "population_proper": "21800",
    "value": "plonsk"
  },
  {
    "city": "Podgórze",
    "lat": "50.0417",
    "lng": "19.9833",
    "country": "Poland",
    "iso2": "PL",
    "admin_name": "Małopolskie",
    "capital": "",
    "population": "34045",
    "population_proper": "34045",
    "value": "podgorze"
  },
  {
    "city": "Poznań",
    "lat": "52.4083",
    "lng": "16.9336",
    "country": "Poland",
    "iso2": "PL",
    "admin_name": "Wielkopolskie",
    "capital": "admin",
    "population": "546859",
    "population_proper": "546859",
    "value": "poznan"
  },
  {
    "city": "Pruszcz Gdański",
    "lat": "54.2667",
    "lng": "18.6333",
    "country": "Poland",
    "iso2": "PL",
    "admin_name": "Pomorskie",
    "capital": "minor",
    "population": "31582",
    "population_proper": "31582",
    "value": "pruszcz_gdanski"
  },
  {
    "city": "Pruszków",
    "lat": "52.1667",
    "lng": "20.8000",
    "country": "Poland",
    "iso2": "PL",
    "admin_name": "Mazowieckie",
    "capital": "minor",
    "population": "65283",
    "population_proper": "65283",
    "value": "pruszkow"
  },
  {
    "city": "Puck",
    "lat": "54.7000",
    "lng": "18.4000",
    "country": "Poland",
    "iso2": "PL",
    "admin_name": "Pomorskie",
    "capital": "minor",
    "population": "10868",
    "population_proper": "10868",
    "value": "puck"
  },
  {
    "city": "Raciąż",
    "lat": "52.7794",
    "lng": "20.1153",
    "country": "Poland",
    "iso2": "PL",
    "admin_name": "Mazowieckie",
    "capital": "",
    "population": "4146",
    "population_proper": "4146",
    "value": "raciaz"
  },
  {
    "city": "Radom",
    "lat": "51.4036",
    "lng": "21.1567",
    "country": "Poland",
    "iso2": "PL",
    "admin_name": "Mazowieckie",
    "capital": "minor",
    "population": "201601",
    "population_proper": "201601",
    "value": "radom"
  },
  {
    "city": "Radzionków Nowy",
    "lat": "50.3833",
    "lng": "18.8833",
    "country": "Poland",
    "iso2": "PL",
    "admin_name": "Śląskie",
    "capital": "",
    "population": "16253",
    "population_proper": "16253",
    "value": "radzionkow_nowy"
  },
  {
    "city": "Rawa Mazowiecka",
    "lat": "51.7658",
    "lng": "20.2533",
    "country": "Poland",
    "iso2": "PL",
    "admin_name": "Łódzkie",
    "capital": "minor",
    "population": "16429",
    "population_proper": "16429",
    "value": "rawa_mazowiecka"
  },
  {
    "city": "Ruda Śląska",
    "lat": "50.2628",
    "lng": "18.8536",
    "country": "Poland",
    "iso2": "PL",
    "admin_name": "Śląskie",
    "capital": "minor",
    "population": "133793",
    "population_proper": "133793",
    "value": "ruda_slaska"
  },
  {
    "city": "Rumia",
    "lat": "54.5667",
    "lng": "18.4000",
    "country": "Poland",
    "iso2": "PL",
    "admin_name": "Pomorskie",
    "capital": "",
    "population": "51879",
    "population_proper": "51879",
    "value": "rumia"
  },
  {
    "city": "Rury",
    "lat": "51.2386",
    "lng": "22.5164",
    "country": "Poland",
    "iso2": "PL",
    "admin_name": "Lubelskie",
    "capital": "",
    "population": "30093",
    "population_proper": "30093",
    "value": "rury"
  },
  {
    "city": "Rybnik",
    "lat": "50.0833",
    "lng": "18.5500",
    "country": "Poland",
    "iso2": "PL",
    "admin_name": "Śląskie",
    "capital": "minor",
    "population": "133772",
    "population_proper": "133772",
    "value": "rybnik"
  },
  {
    "city": "Rypin",
    "lat": "53.0667",
    "lng": "19.4500",
    "country": "Poland",
    "iso2": "PL",
    "admin_name": "Kujawsko-Pomorskie",
    "capital": "minor",
    "population": "15832",
    "population_proper": "15832",
    "value": "rypin"
  },
  {
    "city": "Rzeszów",
    "lat": "50.0333",
    "lng": "22.0000",
    "country": "Poland",
    "iso2": "PL",
    "admin_name": "Podkarpackie",
    "capital": "admin",
    "population": "195871",
    "population_proper": "195871",
    "value": "rzeszow"
  },
  {
    "city": "Sejny",
    "lat": "54.1167",
    "lng": "23.3667",
    "country": "Poland",
    "iso2": "PL",
    "admin_name": "Podlaskie",
    "capital": "minor",
    "population": "5075",
    "population_proper": "5075",
    "value": "sejny"
  },
  {
    "city": "Sidlice",
    "lat": "54.3471",
    "lng": "18.6171",
    "country": "Poland",
    "iso2": "PL",
    "admin_name": "Pomorskie",
    "capital": "",
    "population": "12842",
    "population_proper": "12842",
    "value": "sidlice"
  },
  {
    "city": "Siemianowice Śląskie",
    "lat": "50.2758",
    "lng": "18.9858",
    "country": "Poland",
    "iso2": "PL",
    "admin_name": "Śląskie",
    "capital": "minor",
    "population": "64676",
    "population_proper": "64676",
    "value": "siemianowice_slaskie"
  },
  {
    "city": "Skawina",
    "lat": "49.9833",
    "lng": "19.8333",
    "country": "Poland",
    "iso2": "PL",
    "admin_name": "Małopolskie",
    "capital": "",
    "population": "24177",
    "population_proper": "24177",
    "value": "skawina"
  },
  {
    "city": "Słupca",
    "lat": "52.3000",
    "lng": "17.8667",
    "country": "Poland",
    "iso2": "PL",
    "admin_name": "Wielkopolskie",
    "capital": "minor",
    "population": "13353",
    "population_proper": "13353",
    "value": "slupca"
  },
  {
    "city": "Sochaczew",
    "lat": "52.2333",
    "lng": "20.2333",
    "country": "Poland",
    "iso2": "PL",
    "admin_name": "Mazowieckie",
    "capital": "minor",
    "population": "34439",
    "population_proper": "34439",
    "value": "sochaczew"
  },
  {
    "city": "Sopot",
    "lat": "54.4333",
    "lng": "18.5500",
    "country": "Poland",
    "iso2": "PL",
    "admin_name": "Pomorskie",
    "capital": "minor",
    "population": "32962",
    "population_proper": "32962",
    "value": "sopot"
  },
  {
    "city": "Sosnowiec",
    "lat": "50.2833",
    "lng": "19.1333",
    "country": "Poland",
    "iso2": "PL",
    "admin_name": "Śląskie",
    "capital": "minor",
    "population": "193660",
    "population_proper": "193660",
    "value": "sosnowiec"
  },
  {
    "city": "Starachowice",
    "lat": "51.0500",
    "lng": "21.0667",
    "country": "Poland",
    "iso2": "PL",
    "admin_name": "Świętokrzyskie",
    "capital": "minor",
    "population": "46270",
    "population_proper": "46270",
    "value": "starachowice"
  },
  {
    "city": "Stargard Szczeciński",
    "lat": "53.3333",
    "lng": "15.0333",
    "country": "Poland",
    "iso2": "PL",
    "admin_name": "Zachodniopomorskie",
    "capital": "minor",
    "population": "67348",
    "population_proper": "67348",
    "value": "stargard_szczecinski"
  },
  {
    "city": "Starogard Gdański",
    "lat": "53.9667",
    "lng": "18.5333",
    "country": "Poland",
    "iso2": "PL",
    "admin_name": "Pomorskie",
    "capital": "minor",
    "population": "46373",
    "population_proper": "46373",
    "value": "starogard_gdanski"
  },
  {
    "city": "Suchanino",
    "lat": "54.3667",
    "lng": "18.6500",
    "country": "Poland",
    "iso2": "PL",
    "admin_name": "Pomorskie",
    "capital": "",
    "population": "10392",
    "population_proper": "10392",
    "value": "suchanino"
  },
  {
    "city": "Sulejówek",
    "lat": "52.2442",
    "lng": "21.2800",
    "country": "Poland",
    "iso2": "PL",
    "admin_name": "Mazowieckie",
    "capital": "",
    "population": "21248",
    "population_proper": "21248",
    "value": "sulejowek"
  },
  {
    "city": "Świdnica",
    "lat": "50.8500",
    "lng": "16.4833",
    "country": "Poland",
    "iso2": "PL",
    "admin_name": "Dolnośląskie",
    "capital": "minor",
    "population": "54792",
    "population_proper": "54792",
    "value": "swidnica"
  },
  {
    "city": "Świdnik",
    "lat": "51.2167",
    "lng": "22.7000",
    "country": "Poland",
    "iso2": "PL",
    "admin_name": "Lubelskie",
    "capital": "minor",
    "population": "37884",
    "population_proper": "37884",
    "value": "swidnik"
  },
  {
    "city": "Świętochłowice",
    "lat": "50.2919",
    "lng": "18.9178",
    "country": "Poland",
    "iso2": "PL",
    "admin_name": "Śląskie",
    "capital": "minor",
    "population": "46494",
    "population_proper": "46494",
    "value": "swietochlowice"
  },
  {
    "city": "Szczecin",
    "lat": "53.4325",
    "lng": "14.5481",
    "country": "Poland",
    "iso2": "PL",
    "admin_name": "Zachodniopomorskie",
    "capital": "admin",
    "population": "396168",
    "population_proper": "396168",
    "value": "szczecin"
  },
  {
    "city": "Szczytno",
    "lat": "53.5628",
    "lng": "20.9853",
    "country": "Poland",
    "iso2": "PL",
    "admin_name": "Warmińsko-Mazurskie",
    "capital": "minor",
    "population": "22389",
    "population_proper": "22389",
    "value": "szczytno"
  },
  {
    "city": "Tarnów",
    "lat": "50.0125",
    "lng": "20.9886",
    "country": "Poland",
    "iso2": "PL",
    "admin_name": "Małopolskie",
    "capital": "minor",
    "population": "106259",
    "population_proper": "106259",
    "value": "tarnow"
  },
  {
    "city": "Tczew",
    "lat": "54.0875",
    "lng": "18.7972",
    "country": "Poland",
    "iso2": "PL",
    "admin_name": "Pomorskie",
    "capital": "minor",
    "population": "57990",
    "population_proper": "57990",
    "value": "tczew"
  },
  {
    "city": "Tomaszów Lubelski",
    "lat": "50.4500",
    "lng": "23.4167",
    "country": "Poland",
    "iso2": "PL",
    "admin_name": "Lubelskie",
    "capital": "minor",
    "population": "18567",
    "population_proper": "18567",
    "value": "tomaszow_lubelski"
  },
  {
    "city": "Tomaszów Mazowiecki",
    "lat": "51.5167",
    "lng": "20.0167",
    "country": "Poland",
    "iso2": "PL",
    "admin_name": "Łódzkie",
    "capital": "minor",
    "population": "59388",
    "population_proper": "59388",
    "value": "tomaszow_mazowiecki"
  },
  {
    "city": "Toruń",
    "lat": "53.0222",
    "lng": "18.6111",
    "country": "Poland",
    "iso2": "PL",
    "admin_name": "Kujawsko-Pomorskie",
    "capital": "admin",
    "population": "198273",
    "population_proper": "198273",
    "value": "torun"
  },
  {
    "city": "Turek",
    "lat": "52.0167",
    "lng": "18.5000",
    "country": "Poland",
    "iso2": "PL",
    "admin_name": "Wielkopolskie",
    "capital": "minor",
    "population": "25376",
    "population_proper": "25376",
    "value": "turek"
  },
  {
    "city": "Tychy",
    "lat": "50.1236",
    "lng": "18.9867",
    "country": "Poland",
    "iso2": "PL",
    "admin_name": "Śląskie",
    "capital": "minor",
    "population": "124882",
    "population_proper": "124882",
    "value": "tychy"
  },
  {
    "city": "Ustka",
    "lat": "54.5833",
    "lng": "16.8500",
    "country": "Poland",
    "iso2": "PL",
    "admin_name": "Pomorskie",
    "capital": "",
    "population": "14321",
    "population_proper": "14321",
    "value": "ustka"
  },
  {
    "city": "Wąbrzeźno",
    "lat": "53.2833",
    "lng": "18.9500",
    "country": "Poland",
    "iso2": "PL",
    "admin_name": "Kujawsko-Pomorskie",
    "capital": "minor",
    "population": "13317",
    "population_proper": "13317",
    "value": "wabrzezno"
  },
  {
    "city": "Wągrowiec",
    "lat": "52.8000",
    "lng": "17.2000",
    "country": "Poland",
    "iso2": "PL",
    "admin_name": "Wielkopolskie",
    "capital": "minor",
    "population": "25773",
    "population_proper": "25773",
    "value": "wagrowiec"
  },
  {
    "city": "Wałbrzych",
    "lat": "50.7667",
    "lng": "16.2833",
    "country": "Poland",
    "iso2": "PL",
    "admin_name": "Dolnośląskie",
    "capital": "minor",
    "population": "104401",
    "population_proper": "104401",
    "value": "walbrzych"
  },
  {
    "city": "Warszawa",
    "lat": "52.2300",
    "lng": "21.0111",
    "country": "Poland",
    "iso2": "PL",
    "admin_name": "Mazowieckie",
    "capital": "primary",
    "population": "1860281",
    "population_proper": "1860281",
    "value": "warszawa"
  },
  {
    "city": "Wejherowo",
    "lat": "54.6000",
    "lng": "18.2500",
    "country": "Poland",
    "iso2": "PL",
    "admin_name": "Pomorskie",
    "capital": "minor",
    "population": "47357",
    "population_proper": "47357",
    "value": "wejherowo"
  },
  {
    "city": "Wiśniowa Góra",
    "lat": "51.7167",
    "lng": "19.6333",
    "country": "Poland",
    "iso2": "PL",
    "admin_name": "Łódzkie",
    "capital": "",
    "population": "2569",
    "population_proper": "2569",
    "value": "wisniowa_gora"
  },
  {
    "city": "Włocławek",
    "lat": "52.6592",
    "lng": "19.0681",
    "country": "Poland",
    "iso2": "PL",
    "admin_name": "Kujawsko-Pomorskie",
    "capital": "minor",
    "population": "104705",
    "population_proper": "104705",
    "value": "wloclawek"
  },
  {
    "city": "Wola Rzędzińska",
    "lat": "50.0500",
    "lng": "21.0833",
    "country": "Poland",
    "iso2": "PL",
    "admin_name": "Małopolskie",
    "capital": "",
    "population": "5869",
    "population_proper": "5869",
    "value": "wola_rzedzinska"
  },
  {
    "city": "Wołomin",
    "lat": "52.3500",
    "lng": "21.2333",
    "country": "Poland",
    "iso2": "PL",
    "admin_name": "Mazowieckie",
    "capital": "minor",
    "population": "36311",
    "population_proper": "36311",
    "value": "wolomin"
  },
  {
    "city": "Wrocław",
    "lat": "51.1100",
    "lng": "17.0325",
    "country": "Poland",
    "iso2": "PL",
    "admin_name": "Dolnośląskie",
    "capital": "admin",
    "population": "672929",
    "population_proper": "672929",
    "value": "wroclaw"
  },
  {
    "city": "Ząbki",
    "lat": "52.2928",
    "lng": "21.1161",
    "country": "Poland",
    "iso2": "PL",
    "admin_name": "Mazowieckie",
    "capital": "",
    "population": "43740",
    "population_proper": "43740",
    "value": "zabki"
  },
  {
    "city": "Zabrze",
    "lat": "50.3025",
    "lng": "18.7781",
    "country": "Poland",
    "iso2": "PL",
    "admin_name": "Śląskie",
    "capital": "minor",
    "population": "158307",
    "population_proper": "158307",
    "value": "zabrze"
  },
  {
    "city": "Załęże",
    "lat": "50.2672",
    "lng": "18.9892",
    "country": "Poland",
    "iso2": "PL",
    "admin_name": "Śląskie",
    "capital": "",
    "population": "10185",
    "population_proper": "10185",
    "value": "zaleze"
  },
  {
    "city": "Zambrów",
    "lat": "52.9833",
    "lng": "22.2500",
    "country": "Poland",
    "iso2": "PL",
    "admin_name": "Podlaskie",
    "capital": "minor",
    "population": "21351",
    "population_proper": "21351",
    "value": "zambrow"
  },
  {
    "city": "Zamość",
    "lat": "50.7167",
    "lng": "23.2528",
    "country": "Poland",
    "iso2": "PL",
    "admin_name": "Lubelskie",
    "capital": "minor",
    "population": "60148",
    "population_proper": "60148",
    "value": "zamosc"
  },
  {
    "city": "Żary",
    "lat": "51.6333",
    "lng": "15.1333",
    "country": "Poland",
    "iso2": "PL",
    "admin_name": "Lubuskie",
    "capital": "minor",
    "population": "36004",
    "population_proper": "36004",
    "value": "zary"
  },
  {
    "city": "Zawodzie",
    "lat": "50.2585",
    "lng": "19.0449",
    "country": "Poland",
    "iso2": "PL",
    "admin_name": "Śląskie",
    "capital": "",
    "population": "13406",
    "population_proper": "13406",
    "value": "zawodzie"
  },
  {
    "city": "Zbylitowska Góra",
    "lat": "49.9833",
    "lng": "20.9167",
    "country": "Poland",
    "iso2": "PL",
    "admin_name": "Małopolskie",
    "capital": "",
    "population": "2695",
    "population_proper": "2695",
    "value": "zbylitowska_gora"
  },
  {
    "city": "Zgierz",
    "lat": "51.8500",
    "lng": "19.4167",
    "country": "Poland",
    "iso2": "PL",
    "admin_name": "Łódzkie",
    "capital": "minor",
    "population": "55079",
    "population_proper": "55079",
    "value": "zgierz"
  },
  {
    "city": "Zgłobice",
    "lat": "49.9833",
    "lng": "20.9167",
    "country": "Poland",
    "iso2": "PL",
    "admin_name": "Małopolskie",
    "capital": "",
    "population": "3030",
    "population_proper": "3030",
    "value": "zglobice"
  },
  {
    "city": "Zgorzelec",
    "lat": "51.1500",
    "lng": "15.0083",
    "country": "Poland",
    "iso2": "PL",
    "admin_name": "Dolnośląskie",
    "capital": "minor",
    "population": "29966",
    "population_proper": "29966",
    "value": "zgorzelec"
  },
  {
    "city": "Zielona Góra",
    "lat": "51.9333",
    "lng": "15.5000",
    "country": "Poland",
    "iso2": "PL",
    "admin_name": "Lubuskie",
    "capital": "admin",
    "population": "216781",
    "population_proper": "140002",
    "value": "zielona_gora"
  },
  {
    "city": "Złotoryja",
    "lat": "51.1333",
    "lng": "15.9167",
    "country": "Poland",
    "iso2": "PL",
    "admin_name": "Dolnośląskie",
    "capital": "minor",
    "population": "14656",
    "population_proper": "14656",
    "value": "zlotoryja"
  },
  {
    "city": "Złotów",
    "lat": "53.3603",
    "lng": "17.0408",
    "country": "Poland",
    "iso2": "PL",
    "admin_name": "Wielkopolskie",
    "capital": "minor",
    "population": "18768",
    "population_proper": "18768",
    "value": "zlotow"
  },
  {
    "city": "Żyrardów",
    "lat": "52.0500",
    "lng": "20.4333",
    "country": "Poland",
    "iso2": "PL",
    "admin_name": "Mazowieckie",
    "capital": "minor",
    "population": "39374",
    "population_proper": "39374",
    "value": "zyrardow"
  }
]